[{"slug":"ekb","name":"Екатеринбург","timezone":"Asia/Yekaterinburg","coords":{"lat":56.838607,"lon":60.605514},"language":"ru"},{"slug":"kev","name":"Киев","timezone":"Europe/Kiev","coords":{"lat":50.450097,"lon":30.523397},"language":"ru"},{"slug":"krasnoyarsk","name":"Красноярск","timezone":"Asia/Krasnoyarsk","coords":{"lat":56.010569,"lon":92.852545},"language":"ru"},{"slug":"kzn","name":"Казань","timezone":"Europe/Moscow","coords":{"lat":55.795793,"lon":49.106585},"language":"ru"},{"slug":"msk","name":"Москва","timezone":"Europe/Moscow","coords":{"lat":55.753676,"lon":37.619899},"language":"ru"},{"slug":"nnv","name":"Нижний Новгород","timezone":"Europe/Moscow","coords":{"lat":56.326887,"lon":44.005986},"language":"ru"},{"slug":"nsk","name":"Новосибирск","timezone":"Asia/Novosibirsk","coords":{"lat":55.030199,"lon":82.92043},"language":"ru"},{"slug":"sochi","name":"Сочи","timezone":"Europe/Moscow","coords":{"lat":43.581509,"lon":39.722882},"language":"ru"},{"slug":"spb","name":"Санкт-Петербург","timezone":"Europe/Moscow","coords":{"lat":59.939095,"lon":30.315868},"language":"ru"}]