[{"slug":"ekb","name":"Екатеринбург","timezone":"Asia/Yekaterinburg","coords":{"lat":56.838607,"lon":60.605514}},{"slug":"kev","name":"Киев","timezone":"Europe/Kiev","coords":{"lat":50.450097,"lon":30.523397}},{"slug":"krasnoyarsk","name":"Красноярск","timezone":"Asia/Krasnoyarsk","coords":{"lat":56.010569,"lon":92.852545}},{"slug":"krd","name":"Краснодар","timezone":"Europe/Moscow","coords":{"lat":45.023877,"lon":38.970157}},{"slug":"kzn","name":"Казань","timezone":"Europe/Moscow","coords":{"lat":55.795793,"lon":49.106585}},{"slug":"london","name":"Лондон","timezone":"Europe/London","coords":{"lat":51.506395339968,"lon":-0.13707160949707}},{"slug":"msk","name":"Москва","timezone":"Europe/Moscow","coords":{"lat":55.753676,"lon":37.619899}},{"slug":"new-york","name":"Нью-Йорк","timezone":"US/Eastern","coords":{"lat":40.7143528,"lon":-74.00597309999999}},{"slug":"nnv","name":"Нижний Новгород","timezone":"Europe/Moscow","coords":{"lat":56.326887,"lon":44.005986}},{"slug":"nsk","name":"Новосибирск","timezone":"Asia/Novosibirsk","coords":{"lat":55.030199,"lon":82.92043}},{"slug":"smr","name":"Самара","timezone":"Europe/Samara","coords":{"lat":53.195533,"lon":50.101801}},{"slug":"sochi","name":"Сочи","timezone":"Europe/Moscow","coords":{"lat":43.581509,"lon":39.722882}},{"slug":"spb","name":"Санкт-Петербург","timezone":"Europe/Moscow","coords":{"lat":59.939095,"lon":30.315868}},{"slug":"ufa","name":"Уфа","timezone":"Asia/Yekaterinburg","coords":{"lat":54.734768,"lon":55.957838}},{"slug":"vbg","name":"Выборг","timezone":"Europe/Moscow","coords":{"lat":60.713022,"lon":28.732893}}]